{
  "markets": [
    {
      "id": 1,
      "name": "Test Market 1",
      "latitude": 0,
      "longditude": 0,
      "street": "Teststreet 1",
      "zip": "12345",
      "city": "Testcity"
    },
    {
      "id": 2,
      "name": "Test Market 2",
      "latitude": 0,
      "longditude": 0,
      "street": "Teststreet 2",
      "zip": "12345",
      "city": "Testcity"
    },
    {
      "id": 3,
      "name": "Test Market 3",
      "latitude": 0,
      "longditude": 0,
      "street": "Teststreet 111",
      "zip": "12345",
      "city": "Testcity"
    },
    {
      "id": 4,
      "name": "Test Market 4",
      "latitude": 0,
      "longditude": 0,
      "street": "Teststreet 7",
      "zip": "12345",
      "city": "Testcity"
    }
  ],
  "new": [
    {
      "id": 66,
      "name": "NEW Test Market 6",
      "latitude": 0,
      "longditude": 0,
      "street": "Teststreet 66",
      "zip": "12345",
      "city": "Testcity"
    }, 
    {
      "id": 77,
      "name": " NEW Test Market 2",
      "latitude": 0,
      "longditude": 0,
      "street": "Teststreet 77",
      "zip": "12345",
      "city": "Testcity"
    },
     {
      "id": 4,
      "name": "Test Market 4",
      "latitude": 0,
      "longditude": 0,
      "street": "Teststreet 7",
      "zip": "12345",
      "city": "Testcity"
    }    
  ]
}
